[{"name":"Игоря Киртбая 9 №1","city":"Сургут","area":"5А (Киртбая, Показаньева)","location":[61.269772,73.362939],"url":"https://flussonic.tele-plus.ru/Igor_Kirtbay9_3p/embed.html?dvr=false","id":1},{"name":"Игоря Киртбая 13 №1","city":"Сургут","area":"5А (Киртбая, Показаньева)","location":[61.269729,73.360163],"url":"https://flussonic.tele-plus.ru/Igor_Kirtbay13_1/embed.html?dvr=false","id":2},{"name":"Игоря Киртбая 13 №2","city":"Сургут","area":"5А (Киртбая, Показаньева)","location":[61.269729,73.360163],"url":"https://flussonic.tele-plus.ru/Igor_Kirtbay13_2/embed.html?dvr=false","id":3},{"name":"Игоря Киртбая 13/1 №1","city":"Сургут","area":"5А (Киртбая, Показаньева)","location":[61.269733,73.358843],"url":"https://flussonic.tele-plus.ru/Igor_Kirtbay13/1_1pod/embed.html?dvr=false","id":4},{"name":"Игоря Киртбая 17 №1","city":"Сургут","area":"5А (Киртбая, Показаньева)","location":[61.269495,73.35736],"url":"https://flussonic.tele-plus.ru/Igor_Kirtbay17_1/embed.html?dvr=false","id":5},{"name":"Игоря Киртбая 17 №2","city":"Сургут","area":"5А (Киртбая, Показаньева)","location":[61.269495,73.35736],"url":"https://flussonic.tele-plus.ru/Igor_Kirtbay17_2/embed.html?dvr=false","id":6},{"name":"Игоря Киртбая 19/1 №1","city":"Сургут","area":"5А (Киртбая, Показаньева)","location":[61.269889,73.35551],"url":"https://flussonic.tele-plus.ru/Igor_Kirtbay19/1/embed.html?dvr=false","id":7},{"name":"Игоря Киртбая 19/3 №1","city":"Сургут","area":"5А (Киртбая, Показаньева)","location":[61.26934,73.355016],"url":"https://flussonic.tele-plus.ru/Igor_Kirtbay19/3/embed.html?dvr=false","id":8},{"name":"Игоря Киртбая 21/1 №1","city":"Сургут","area":"5А (Киртбая, Показаньева)","location":[61.269772,73.354297],"url":"https://flussonic.tele-plus.ru/Igor_Kirtbay21/1/embed.html?dvr=false","id":9},{"name":"Игоря Киртбая 22/2 №1","city":"Сургут","area":"5А (Киртбая, Показаньева)","location":[61.271113,73.351629],"url":"https://flussonic.tele-plus.ru/Igor_Kirtbay21/2/embed.html?dvr=false","id":10},{"name":"Игоря Киртбая 25 №1","city":"Сургут","area":"5А (Киртбая, Показаньева)","location":[61.269457,73.351566],"url":"https://flussonic.tele-plus.ru/Igori_Kirtbay_25_1/embed.html?dvr=false","id":11},{"name":"Игоря Киртбая 25 №2","city":"Сургут","area":"5А (Киртбая, Показаньева)","location":[61.269457,73.351566],"url":"https://flussonic.tele-plus.ru/Igor_Kirtbay25_2/embed.html?dvr=false","id":12},{"name":"Показаньева 4 №1","city":"Сургут","area":"5А (Киртбая, Показаньева)","location":[61.267532,73.359606],"url":"https://flussonic.tele-plus.ru/Pokazaneva_4/embed.html?dvr=false","id":13},{"name":"Показаньева 4 №2","city":"Сургут","area":"5А (Киртбая, Показаньева)","location":[61.267532,73.359606],"url":"https://flussonic.tele-plus.ru/Pokazaneva_4_2/embed.html?dvr=false","id":14},{"name":"Показаньева 4 №3","city":"Сургут","area":"5А (Киртбая, Показаньева)","location":[61.267532,73.359606],"url":"https://flussonic.tele-plus.ru/Pokazaneva_4_3/embed.html?dvr=false","id":15},{"name":"Профсоюзов 18 №1","city":"Сургут","area":"11A (Профсоюзов)","location":[61.267683,73.383528],"url":"https://flussonic.tele-plus.ru/Profsouzov18_4pod/embed.html?dvr=false","id":16},{"name":"Профсоюзов 18/2 №1","city":"Сургут","area":"11A (Профсоюзов)","location":[61.267683,73.383528],"url":"https://flussonic.tele-plus.ru/Profsouzov18/2/embed.html?dvr=false","id":17},{"name":"Профсоюзов 22 №1","city":"Сургут","area":"11A (Профсоюзов)","location":[61.267419,73.386322],"url":"https://flussonic.tele-plus.ru/Profsouzov22_1pod/embed.html?dvr=false","id":18},{"name":"Профсоюзов 24/1 №1","city":"Сургут","area":"11A (Профсоюзов)","location":[61.266429,73.386538],"url":"https://flussonic.tele-plus.ru/Profsouzov24/1_6pod/embed.html?dvr=false","id":19},{"name":"Лермонтова 11 №1","city":"Сургут","area":"11A (Профсоюзов)","location":[61.265166,73.390149],"url":"https://flussonic.tele-plus.ru/Lermontova11_1pod/embed.html?dvr=false","id":20},{"name":"Лермонтова 11/1 №1","city":"Сургут","area":"11A (Профсоюзов)","location":[61.26549,73.387759],"url":"https://flussonic.tele-plus.ru/Lermontova11/1_4pod/embed.html?dvr=false","id":21},{"name":"Лермонтова 11/3 №1","city":"Сургут","area":"11A (Профсоюзов)","location":[61.265836,73.385783],"url":"https://flussonic.tele-plus.ru/Lermontova11/3_2pod/embed.html?dvr=false","id":22},{"name":"Лермонтова 13 №1","city":"Сургут","area":"11A (Профсоюзов)","location":[61.266338,73.390751],"url":"https://flussonic.tele-plus.ru/Lermontova13_2pod/embed.html?dvr=false","id":23},{"name":"Лермонтова 13/1 №1","city":"Сургут","area":"11A (Профсоюзов)","location":[61.266204,73.389412],"url":"https://flussonic.tele-plus.ru/Lermontova_13/1_2pod/embed.html?dvr=false","id":24},{"name":"Чехова 14/1 №1","city":"Сургут","area":"11A (Профсоюзов)","location":[61.266208,73.382792],"url":"https://flussonic.tele-plus.ru/Chehova14/1_5pod/embed.html?dvr=false","id":25},{"name":"Мира 19 Перекресток","city":"Сургут","area":"13A (Мира)","location":[61.261191,73.391523],"url":"https://flussonic.tele-plus.ru/Mira19/embed.html?dvr=false","id":26},{"name":"Университетская 3 №1","city":"Сургут","area":"18 (Университетская)","location":[61.245367,73.408582],"url":"https://flussonic.tele-plus.ru/Univer3/embed.html?dvr=false","id":27},{"name":"Университетская 3 №2","city":"Сургут","area":"18 (Университетская)","location":[61.245367,73.408582],"url":"https://flussonic.tele-plus.ru/univer3_1/embed.html?dvr=false","id":28},{"name":"Сибирская 15 №1","city":"Сургут","area":"18 (Университетская)","location":[61.249019,73.409265],"url":"https://flussonic.tele-plus.ru/Sibirskaya15_4pod_1/embed.html?dvr=false","id":29},{"name":"Сибирская 15 №2","city":"Сургут","area":"18 (Университетская)","location":[61.249019,73.409265],"url":"https://flussonic.tele-plus.ru/Sibirskaya15_4pod_2/embed.html?dvr=false","id":30},{"name":"Сибирская 15 №3","city":"Сургут","area":"18 (Университетская)","location":[61.249019,73.409265],"url":"https://flussonic.tele-plus.ru/Sibirskaya15_1pod_1/embed.html?dvr=false","id":31},{"name":"Университетская 7 №1","city":"Сургут","area":"19 (Университетская)","location":[61.24641,73.414143],"url":"https://flussonic.tele-plus.ru/Universitetskaya7_1pod/embed.html?dvr=false","id":32},{"name":"Университетская 7 №2","city":"Сургут","area":"19 (Университетская)","location":[61.24641,73.414143],"url":"https://flussonic.tele-plus.ru/Universitetskaya7_3pod/embed.html?dvr=false","id":33},{"name":"Университетская 9 №1","city":"Сургут","area":"19 (Университетская)","location":[61.246812,73.416362],"url":"https://flussonic.tele-plus.ru/Univer_9.1/embed.html?dvr=false","id":34},{"name":"Университетская 9 №2","city":"Сургут","area":"19 (Университетская)","location":[61.246812,73.416362],"url":"https://flussonic.tele-plus.ru/Univer_9.2/embed.html?dvr=false","id":35},{"name":"Университетская 11 №1","city":"Сургут","area":"20 (Университетская)","location":[61.247509,73.419632],"url":"https://flussonic.tele-plus.ru/Univer_11_4pod/embed.html?dvr=false","id":36},{"name":"Маяковского 10 №1","city":"Сургут","area":"20А (Маяковского)","location":[61.250378,73.42185],"url":"https://flussonic.tele-plus.ru/Maykovskogo10/embed.html?dvr=false","id":37},{"name":"Маяковского 10 №2","city":"Сургут","area":"20А (Маяковского)","location":[61.250378,73.42185],"url":"https://flussonic.tele-plus.ru/Maykovskogo10_1/embed.html?dvr=false","id":38},{"name":" Югорская 5 №1","city":"Сургут","area":"26 (Югорская)","location":[61.238571,73.461376],"url":"https://flussonic.tele-plus.ru/Ygorskay_5_1/embed.html?dvr=false","id":39},{"name":"Югорская 5/2 №1","city":"Сургут","area":"26 (Югорская)","location":[61.237172,73.462885],"url":"https://flussonic.tele-plus.ru/Ygorskay_5/2_1/embed.html?dvr=false","id":40},{"name":"Югорская 5/2 №2","city":"Сургут","area":"26 (Югорская)","location":[61.237172,73.462885],"url":"https://flussonic.tele-plus.ru/Ygorskay_5/2_2/embed.html?dvr=false","id":41},{"name":"Югорская 5/3 №1","city":"Сургут","area":"26 (Югорская)","location":[61.237947,73.460927],"url":"https://flussonic.tele-plus.ru/Ygorskay_5/3/embed.html?dvr=false","id":42},{"name":"Югорская 5/3 №2","city":"Сургут","area":"26 (Югорская)","location":[61.237947,73.460927],"url":"https://flussonic.tele-plus.ru/Ygorskay_5/3_2/embed.html?dvr=false","id":43},{"name":"Югорская 5/4 №1","city":"Сургут","area":"26 (Югорская)","location":[61.23806,73.46479],"url":"https://flussonic.tele-plus.ru/Ygorskay_5/4/embed.html?dvr=false","id":44},{"name":"27А (Югорская)","city":"Сургут","location":null,"url":"https://flussonic.tele-plus.ru//embed.html?dvr=false","id":45},{"name":"Каролинского 8 №1","city":"Сургут","area":"30 (Пролетарский, Каролинского)","location":[61.246431,73.450902],"url":"https://flussonic.tele-plus.ru/Karalinskogo_8/embed.html?dvr=false","id":46},{"name":"Каролинского 10 №1","city":"Сургут","area":"30 (Пролетарский, Каролинского)","location":[61.247769,73.451594],"url":"https://flussonic.tele-plus.ru/Karalinskogo_10/embed.html?dvr=false","id":47},{"name":"Каролинского 10 №2","city":"Сургут","area":"30 (Пролетарский, Каролинского)","location":[61.247769,73.451594],"url":"https://flussonic.tele-plus.ru/Karalinskogo_10_2/embed.html?dvr=false","id":48},{"name":" Пролетарский 35 №1","city":"Сургут","area":"30 (Пролетарский, Каролинского)","location":[61.24357,73.45481],"url":"https://flussonic.tele-plus.ru/Proletarskiy35/embed.html?dvr=false","id":49},{"name":"Пролетарский 35 №2","city":"Сургут","area":"30 (Пролетарский, Каролинского)","location":[61.24357,73.45481],"url":"https://flussonic.tele-plus.ru/Proletarskiy35_1/embed.html?dvr=false","id":50},{"name":"Пролетарский 39 №1","city":"Сургут","area":"30 (Пролетарский, Каролинского)","location":[61.243401,73.458367],"url":"https://flussonic.tele-plus.ru/Proletarsky_39/embed.html?dvr=false","id":51},{"name":" Захарова 9 №1","city":"Сургут","area":"30А (Захарова)","location":[61.247176,73.460828],"url":"https://flussonic.tele-plus.ru/Zaharova_9/embed.html?dvr=false","id":52},{"name":"Захарова 9 №2","city":"Сургут","area":"30А (Захарова)","location":[61.247176,73.460828],"url":"https://flussonic.tele-plus.ru/Zaharova_9.2/embed.html?dvr=false","id":53},{"name":"Захарова 11 №1","city":"Сургут","area":"30А (Захарова)","location":[61.24773,73.460343],"url":"https://flussonic.tele-plus.ru/Zaharova_11/embed.html?dvr=false","id":54},{"name":"Каролинского 12 №1","city":"Сургут","area":"30А (Захарова)","location":[61.249089,73.452375],"url":"https://flussonic.tele-plus.ru/Karolinskogo12_3pod/embed.html?dvr=false","id":55},{"name":" Университетская 39 №2","city":"Сургут","area":"31 (Университетская)","location":[61.252274,73.453947],"url":"https://flussonic.tele-plus.ru/Univer39_1pod/embed.html?dvr=false","id":56},{"name":" Университетская 39 №2","city":"Сургут","area":"31 (Университетская)","location":[61.252274,73.453947],"url":"https://flussonic.tele-plus.ru/Univer39_6pod/embed.html?dvr=false","id":57},{"name":" Университетская 41 №1","city":"Сургут","area":"31 (Университетская)","location":[61.252784,73.456669],"url":"https://flussonic.tele-plus.ru/Univer41_2pod/embed.html?dvr=false","id":58},{"name":" Университетская 41 №2","city":"Сургут","area":"31 (Университетская)","location":[61.252784,73.456669],"url":"https://flussonic.tele-plus.ru/Univer41_6pod/embed.html?dvr=false","id":59},{"name":" Пролетарский 1 №1","city":"Сургут","area":"32 (Пролетарский, Каролинского, 30 лет Победы)","location":[61.253468,73.437032],"url":"https://flussonic.tele-plus.ru/Proletarskiy_1/embed.html?dvr=false","id":60},{"name":"Пролетарский 1 №2","city":"Сургут","area":"32 (Пролетарский, Каролинского, 30 лет Победы)","location":[61.253468,73.437032],"url":"https://flussonic.tele-plus.ru/Proletarskiy_1_2/embed.html?dvr=false","id":61},{"name":"Пролетарский 1 №3","city":"Сургут","area":"32 (Пролетарский, Каролинского, 30 лет Победы)","location":[61.253468,73.437032],"url":"https://flussonic.tele-plus.ru/Proletarskiy1_3/embed.html?dvr=false","id":62},{"name":"Пролетарский 3/1 №1","city":"Сургут","area":"32 (Пролетарский, Каролинского, 30 лет Победы)","location":[61.253031,73.438523],"url":"https://flussonic.tele-plus.ru/Proletarskiy3/1/embed.html?dvr=false","id":63},{"name":"Пролетарский 5 №1","city":"Сургут","area":"32 (Пролетарский, Каролинского, 30 лет Победы)","location":[61.252148,73.438137],"url":"https://flussonic.tele-plus.ru/Proletarskiy5_1/embed.html?dvr=false","id":64},{"name":"Пролетарский 5 №2","city":"Сургут","area":"32 (Пролетарский, Каролинского, 30 лет Победы)","location":[61.252148,73.438137],"url":"https://flussonic.tele-plus.ru/Proletarskiy5_2/embed.html?dvr=false","id":65},{"name":"Каролинского 13  №1","city":"Сургут","area":"32 (Пролетарский, Каролинского, 30 лет Победы)","location":[61.254571,73.447084],"url":"https://flussonic.tele-plus.ru/Karalinskogo_13/embed.html?dvr=false","id":66},{"name":"Каролинского 13  №2","city":"Сургут","area":"32 (Пролетарский, Каролинского, 30 лет Победы)","location":[61.254571,73.447084],"url":"https://flussonic.tele-plus.ru/Karalinskogo_13_2/embed.html?dvr=false","id":67},{"name":"Каролинского 13/1 №1","city":"Сургут","area":"32 (Пролетарский, Каролинского, 30 лет Победы)","location":[61.254662,73.446042],"url":"https://flussonic.tele-plus.ru/Karalinskogo_13/1/embed.html?dvr=false","id":68},{"name":"Каролинского 15 №1","city":"Сургут","area":"32 (Пролетарский, Каролинского, 30 лет Победы)","location":[61.25583,73.446303],"url":"https://flussonic.tele-plus.ru/Karalinskogo_15/embed.html?dvr=false","id":69},{"name":"30 Лет Победы 52/1 №1","city":"Сургут","area":"32 (Пролетарский, Каролинского, 30 лет Победы)","location":[61.254104,73.43767],"url":"https://flussonic.tele-plus.ru/30_Let_Pobedy_52/1/embed.html?dvr=false","id":70},{"name":"30 Лет Победы 54 №1","city":"Сургут","area":"32 (Пролетарский, Каролинского, 30 лет Победы)","location":[61.255186,73.438936],"url":"https://flussonic.tele-plus.ru/30_Let_Pobedy_54/embed.html?dvr=false","id":71},{"name":"30 Лет Победы 54 №2","city":"Сургут","area":"32 (Пролетарский, Каролинского, 30 лет Победы)","location":[61.255186,73.438936],"url":"https://flussonic.tele-plus.ru/30_Let_Pobedy_54_2/embed.html?dvr=false","id":72},{"name":"30 Лет Победы 56/1 №1","city":"Сургут","area":"32 (Пролетарский, Каролинского, 30 лет Победы)","location":[61.254896,73.441434],"url":"https://flussonic.tele-plus.ru/30_Let_Pobedy_56/1_1/embed.html?dvr=false","id":73},{"name":"30 Лет Победы 56/1 №2","city":"Сургут","area":"32 (Пролетарский, Каролинского, 30 лет Победы)","location":[61.254896,73.441434],"url":"https://flussonic.tele-plus.ru/30_Let_Pobedy_56/1_2/embed.html?dvr=false","id":74},{"name":"30 Лет Победы 62 №1","city":"Сургут","area":"32 (Пролетарский, Каролинского, 30 лет Победы)","location":[61.255463,73.445377],"url":"https://flussonic.tele-plus.ru/30_Let_Pobedy_62/embed.html?dvr=false","id":75},{"name":"30 Лет Победы 37/1 №1","city":"Сургут","area":"33 (30 лет Победы, Быстринская)","location":[61.256328,73.435954],"url":"https://flussonic.tele-plus.ru/30_Let_Pobet_37/1/embed.html?dvr=false","id":76},{"name":"30 Лет Победы 37/1 №2","city":"Сургут","area":"33 (30 лет Победы, Быстринская)","location":[61.256328,73.435954],"url":"https://flussonic.tele-plus.ru/30_Let_Pobet_37/1_2/embed.html?dvr=false","id":77},{"name":"30 Лет Победы 37/1 №3","city":"Сургут","area":"33 (30 лет Победы, Быстринская)","location":[61.256328,73.435954],"url":"https://flussonic.tele-plus.ru/30_Let_Pobet_37/1_3/embed.html?dvr=false","id":78},{"name":"30 Лет Победы 37/2 №1","city":"Сургут","area":"33 (30 лет Победы, Быстринская)","location":[61.256825,73.433088],"url":"https://flussonic.tele-plus.ru/30_Let_Pobet_37/2/embed.html?dvr=false","id":79},{"name":"30 Лет Победы 37/2 №2","city":"Сургут","area":"33 (30 лет Победы, Быстринская)","location":[61.256825,73.433088],"url":"https://flussonic.tele-plus.ru/30_Let_Pobet_37/2_2/embed.html?dvr=false","id":80},{"name":"30 Лет Победы 37/3 №1","city":"Сургут","area":"33 (30 лет Победы, Быстринская)","location":[61.257565,73.434067],"url":"https://flussonic.tele-plus.ru/30_Let_Pobet_37/3/embed.html?dvr=false","id":81},{"name":"30 Лет Победы 37/3 №2","city":"Сургут","area":"33 (30 лет Победы, Быстринская)","location":[61.257565,73.434067],"url":"https://flussonic.tele-plus.ru/30_Let_Pobet_37/3_2/embed.html?dvr=false","id":82},{"name":"30 Лет Победы 39 №1","city":"Сургут","area":"33 (30 лет Победы, Быстринская)","location":[61.255999,73.438532],"url":"https://flussonic.tele-plus.ru/30_Let_Pobet_39/embed.html?dvr=false","id":83},{"name":"30 Лет Победы 39 №2","city":"Сургут","area":"33 (30 лет Победы, Быстринская)","location":[61.255999,73.438532],"url":"https://flussonic.tele-plus.ru/30_Let_Pobet_39_2/embed.html?dvr=false","id":84},{"name":"30 Лет Победы 41/1 №1","city":"Сургут","area":"33 (30 лет Победы, Быстринская)","location":[61.257102,73.439727],"url":"https://flussonic.tele-plus.ru/30_Let_Pobet_41/1/embed.html?dvr=false","id":85},{"name":"30 Лет Победы 43 №1","city":"Сургут","area":"33 (30 лет Победы, Быстринская)","location":[61.2567,73.442754],"url":"https://flussonic.tele-plus.ru/30_Let_Pobet_43/embed.html?dvr=false","id":86},{"name":"30 Лет Победы 45 №1","city":"Сургут","area":"33 (30 лет Победы, Быстринская)","location":[61.257686,73.444524],"url":"https://flussonic.tele-plus.ru/30_Let_Pobet_45/embed.html?dvr=false","id":87},{"name":"30 Лет Победы 45 №2","city":"Сургут","area":"33 (30 лет Победы, Быстринская)","location":[61.257686,73.444524],"url":"https://flussonic.tele-plus.ru/30_Let_Pobet_45_2/embed.html?dvr=false","id":88},{"name":"Быстринская 18 №1","city":"Сургут","area":"33 (30 лет Победы, Быстринская)","location":[61.259343,73.435738],"url":"https://flussonic.tele-plus.ru/Bstrinskay18/embed.html?dvr=false","id":89},{"name":"Быстринская 18 №2","city":"Сургут","area":"33 (30 лет Победы, Быстринская)","location":[61.259343,73.435738],"url":"https://flussonic.tele-plus.ru/Bstrinskay18_2/embed.html?dvr=false","id":90},{"name":"Быстринская 20/3 №1","city":"Сургут","area":"33 (30 лет Победы, Быстринская)","location":[61.257955,73.438532],"url":"https://flussonic.tele-plus.ru/Bstrinskay20/3/embed.html?dvr=false","id":91},{"name":"Быстринская 20/3 №2","city":"Сургут","area":"33 (30 лет Победы, Быстринская)","location":[61.257955,73.438532],"url":"https://flussonic.tele-plus.ru/Bstrinskay20/3_2/embed.html?dvr=false","id":92},{"name":"Быстринская 6 №1","city":"Сургут","area":"34 (Быстринская, Мира)","location":[61.260615,73.4245],"url":"https://flussonic.tele-plus.ru/Bistrinskaya6_4p_1/embed.html?dvr=false","id":93},{"name":"Быстринская 6 №2","city":"Сургут","area":"34 (Быстринская, Мира)","location":[61.260615,73.4245],"url":"https://flussonic.tele-plus.ru/Bistrinskaya6_4p_2/embed.html?dvr=false","id":94},{"name":"Быстринская 8 №1","city":"Сургут","area":"34 (Быстринская, Мира)","location":[61.260503,73.427141],"url":"https://flussonic.tele-plus.ru/Bstrinskay8/embed.html?dvr=false","id":95},{"name":"Быстринская 8/1 №1","city":"Сургут","area":"34 (Быстринская, Мира)","location":[61.259854,73.42662],"url":"https://flussonic.tele-plus.ru/Bstrinskay8/1/embed.html?dvr=false","id":96},{"name":"Быстринская 8/1 №2","city":"Сургут","area":"34 (Быстринская, Мира)","location":[61.259854,73.42662],"url":"https://flussonic.tele-plus.ru/Bstrinskay8/1_3p/embed.html?dvr=false","id":97},{"name":"Быстринская 10 №1","city":"Сургут","area":"34 (Быстринская, Мира)","location":[61.260321,73.429181],"url":"https://flussonic.tele-plus.ru/Bstrinskay10_2p/embed.html?dvr=false","id":98},{"name":"Быстринская 10 №2","city":"Сургут","area":"34 (Быстринская, Мира)","location":[61.260321,73.429181],"url":"https://flussonic.tele-plus.ru/Bstrinskay10_5p/embed.html?dvr=false","id":99},{"name":"Быстринская 12 №1","city":"Сургут","area":"34 (Быстринская, Мира)","location":[61.259971,73.431274],"url":"https://flussonic.tele-plus.ru/Bstrinskay12_1p/embed.html?dvr=false","id":100},{"name":"Быстринская 12 №2","city":"Сургут","area":"34 (Быстринская, Мира)","location":[61.259971,73.431274],"url":"https://flussonic.tele-plus.ru/Bstrinskay12_3p/embed.html?dvr=false","id":101},{"name":"Мира 53 №1","city":"Сургут","area":"34 (Быстринская, Мира)","location":[61.257137,73.424276],"url":"https://flussonic.tele-plus.ru/Mira53/embed.html?dvr=false","id":102},{"name":"Мира 53 №2","city":"Сургут","area":"34 (Быстринская, Мира)","location":[61.257137,73.424276],"url":"https://flussonic.tele-plus.ru/Mira53_2/embed.html?dvr=false","id":103},{"name":"Мира 55 №1","city":"Сургут","area":"34 (Быстринская, Мира)","location":[61.256687,73.428282],"url":"https://flussonic.tele-plus.ru/Mira55/embed.html?dvr=false","id":104},{"name":"Мира 55 №2","city":"Сургут","area":"34 (Быстринская, Мира)","location":[61.256687,73.428282],"url":"https://flussonic.tele-plus.ru/Mira55_2/embed.html?dvr=false","id":105},{"name":"Мира 55 №3","city":"Сургут","area":"34 (Быстринская, Мира)","location":[61.256687,73.428282],"url":"https://flussonic.tele-plus.ru/Mira55_3/embed.html?dvr=false","id":106},{"name":"Мира 55 №4","city":"Сургут","area":"34 (Быстринская, Мира)","location":[61.256687,73.428282],"url":"https://flussonic.tele-plus.ru/Mira55_4/embed.html?dvr=false","id":107},{"name":"Тюменский тракт 2 №1","city":"Сургут","area":"38 (Тюменский тракт)","location":[61.275921,73.360091],"url":"https://flussonic.tele-plus.ru/Tumenskiy_tract2/embed.html?dvr=false","id":108},{"name":"Тюменский тракт 2 №2","city":"Сургут","area":"38 (Тюменский тракт)","location":[61.275921,73.360091],"url":"https://flussonic.tele-plus.ru/Tumenskiy_tract2_2/embed.html?dvr=false","id":109},{"name":"Тюменский тракт 4 №1","city":"Сургут","area":"38 (Тюменский тракт)","location":[61.277149,73.358465],"url":"https://flussonic.tele-plus.ru/Tumenskiy_tract4/embed.html?dvr=false","id":110},{"name":"Тюменский тракт 4 №2","city":"Сургут","area":"38 (Тюменский тракт)","location":[61.277149,73.358465],"url":"https://flussonic.tele-plus.ru/Tumenskiy_tract4_2/embed.html?dvr=false","id":111},{"name":"Тюменский тракт 6/1 №1","city":"Сургут","area":"38 (Тюменский тракт)","location":[61.277015,73.361493],"url":"https://flussonic.tele-plus.ru/Tumenskiy_tract6/1/embed.html?dvr=false","id":112},{"name":"Тюменский тракт 6/1 №2","city":"Сургут","area":"38 (Тюменский тракт)","location":[61.277015,73.361493],"url":"https://flussonic.tele-plus.ru/Tumenskiy_tract6/1_2/embed.html?dvr=false","id":113},{"name":"Тюменский тракт 8","city":"Сургут","area":"38 (Тюменский тракт)","location":[61.277015,73.361493],"url":"https://flussonic.tele-plus.ru/Tumenskiy_tract8/embed.html?dvr=false","id":114},{"name":"Тюменский тракт 10","city":"Сургут","area":"38 (Тюменский тракт)","location":[61.277015,73.361493],"url":"https://flussonic.tele-plus.ru/Tumenskiy_tract10/embed.html?dvr=false","id":115},{"name":"Билецкого 12 №1","city":"Сургут","area":"39 (Билецкого, Крылова)","location":[61.28306,73.35507],"url":"https://flussonic.tele-plus.ru/Beleckogo12/embed.html?dvr=false","id":116},{"name":"Билецкого 12/1 №1","city":"Сургут","area":"39 (Билецкого, Крылова)","location":[61.283003,73.356875],"url":"https://flussonic.tele-plus.ru/Beleckogo12/1_1p/embed.html?dvr=false","id":117},{"name":"Крылова 36 №1","city":"Сургут","area":"39 (Билецкого, Крылова)","location":[61.285472,73.357271],"url":"https://flussonic.tele-plus.ru/Krilova36_1p/embed.html?dvr=false","id":118},{"name":"Крылова 36 №2","city":"Сургут","area":"39 (Билецкого, Крылова)","location":[61.285472,73.357271],"url":"https://flussonic.tele-plus.ru/Krilova36_6p/embed.html?dvr=false","id":119},{"name":"Крылова 38 №1","city":"Сургут","area":"39 (Билецкого, Крылова)","location":[61.285342,73.361879],"url":"https://flussonic.tele-plus.ru/Krilova38_1p/embed.html?dvr=false","id":120},{"name":"Крылова 38 №2","city":"Сургут","area":"39 (Билецкого, Крылова)","location":[61.285342,73.361879],"url":"https://flussonic.tele-plus.ru/Krilova38_3p/embed.html?dvr=false","id":121},{"name":"Усольцева 15 №1","city":"Сургут","area":"40 (Усольцева, Крылова)","location":[61.283328,73.347236],"url":"https://flussonic.tele-plus.ru/Usolceva_15_6p/embed.html?dvr=false","id":122},{"name":"Усольцева 15 №2","city":"Сургут","area":"40 (Усольцева, Крылова)","location":[61.283328,73.347236],"url":"https://flussonic.tele-plus.ru/Usolceva_15_2p/embed.html?dvr=false","id":123},{"name":"Крылова 32 №1","city":"Сургут","area":"40 (Усольцева, Крылова)","location":[61.285541,73.352905],"url":"https://flussonic.tele-plus.ru/Krilova32_5pod/embed.html?dvr=false","id":124},{"name":"Крылова 32 №2","city":"Сургут","area":"40 (Усольцева, Крылова)","location":[61.285541,73.352905],"url":"https://flussonic.tele-plus.ru/Krilova32_8pod/embed.html?dvr=false","id":125},{"name":"Усольцева 13 №1","city":"Сургут","area":"41 (Усольцева)","location":[52.39783,104.338108],"url":"https://flussonic.tele-plus.ru/Usolceva_13/embed.html?dvr=false","id":126},{"name":"Усольцева 13 №2","city":"Сургут","area":"41 (Усольцева)","location":[53.671534,71.08562],"url":"https://flussonic.tele-plus.ru/Usolceva_13_2/embed.html?dvr=false","id":127},{"name":"Крылова 41","city":"Сургут","area":"ПИКС (Крылова)","location":[0,0],"url":"https://flussonic.tele-plus.ru/Krilova_41/embed.html?dvr=false","id":128},{"name":"Крылова 43","city":"Сургут","area":"ПИКС (Крылова)","location":[0,0],"url":"https://flussonic.tele-plus.ru/Krilova_43/embed.html?dvr=false","id":129},{"name":"Крылова 43/1","city":"Сургут","area":"ПИКС (Крылова)","location":[0,0],"url":"https://flussonic.tele-plus.ru/Krilova_43/1/embed.html?dvr=false","id":130},{"name":"Захарова 2 №1","city":"Сургут","area":"п. СУ-4 (Захарова)","location":[42.883217,73.045852],"url":"https://flussonic.tele-plus.ru/Zaharova2/embed.html?dvr=false","id":131},{"name":"Захарова 4 №1","city":"Сургут","area":"п. СУ-4 (Захарова)","location":[43.166011,76.602947],"url":"https://flussonic.tele-plus.ru/Zaharova4/embed.html?dvr=false","id":132},{"name":"Грибоедова 5 №1","city":"Сургут","area":"ЖД (Грибоедова, Толстого)","location":[61.286397,73.329144],"url":"https://flussonic.tele-plus.ru/Griboedova_5/embed.html?dvr=false","id":133},{"name":"Толстого 28 №1","city":"Сургут","area":"ЖД (Грибоедова, Толстого)","location":[61.283799,73.317053],"url":"https://flussonic.tele-plus.ru/Tolstogo_28/embed.html?dvr=false","id":134},{"name":"Бульвар Свободы 8","city":"Сургут","area":"Центральный (Свободы)","location":[61.24921,73.396868],"url":"https://flussonic.tele-plus.ru/Bulvar_svobody_8_1pod/embed.html?dvr=false","id":135},{"name":"Эстонских Дорожников 26 №1","city":"Лянтор","location":[61.629103,72.164622],"url":"https://flussonic.tele-plus.ru/Estonski_doroshnik_26/embed.html?dvr=false","id":136},{"name":"Эстонских Дорожников 26 №2","city":"Лянтор","location":[61.629103,72.164622],"url":"https://flussonic.tele-plus.ru/Estonski_doroshnik_26_2/embed.html?dvr=false","id":137},{"name":"Эстонских Дорожников 28 №1","city":"Лянтор","location":[61.626816,72.171],"url":"https://flussonic.tele-plus.ru/Estonski_doroshnik_1/embed.html?dvr=false","id":138},{"name":"1 мкр д.3 №1","city":"Белый Яр","location":[61.259317,73.243283],"url":"https://flussonic.tele-plus.ru/by_1mkr3d/embed.html?dvr=false","id":139},{"name":"1 мкр д.3 №2","city":"Белый Яр","location":[61.259317,73.243283],"url":"https://flussonic.tele-plus.ru/by_1mkr3d_2/embed.html?dvr=false","id":140},{"name":"Некрасова 1А №1","city":"Белый Яр","location":[61.259694,73.249284],"url":"https://flussonic.tele-plus.ru/by_nekrasova1a/embed.html?dvr=false","id":141},{"name":" Некрасова 1А №2","city":"Белый Яр","location":[61.259694,73.249284],"url":"https://flussonic.tele-plus.ru/by_nekrasova1a_2/embed.html?dvr=false","id":142},{"name":" Некрасова 1Б №1","city":"Белый Яр","location":[61.260083,73.24994],"url":"https://flussonic.tele-plus.ru/by_nekrasova1b/embed.html?dvr=false","id":143},{"name":" Некрасова 1Б №2","city":"Белый Яр","location":[61.260083,73.24994],"url":"https://flussonic.tele-plus.ru/by_nekrasova_1b_2pod/embed.html?dvr=false","id":144},{"name":"Некрасова 2 №1","city":"Белый Яр","location":[61.259646,73.248017],"url":"https://flussonic.tele-plus.ru/by_nekrasova2/embed.html?dvr=false","id":145},{"name":"Некрасова 3/1 №1","city":"Белый Яр","location":[61.259694,73.249284],"url":"https://flussonic.tele-plus.ru/by_nekrasova_3/1/embed.html?dvr=false","id":146},{"name":"Маяковского 3 №1","city":"Белый Яр","location":[61.26463,73.258339],"url":"https://flussonic.tele-plus.ru/by_mayakovsogo_3_2pod/embed.html?dvr=false","id":147},{"name":"Маяковского 4А №1","city":"Белый Яр","location":[61.263933,73.256974],"url":"https://flussonic.tele-plus.ru/by_mayakovskogo_4a/embed.html?dvr=false","id":148},{"name":" Совхозная 7 №1","city":"Белый Яр","location":[61.256233,73.25029],"url":"https://flussonic.tele-plus.ru/by_sovhoznaya_7_2pod/embed.html?dvr=false","id":149},{"name":"Киевская 1/1 №1","city":"Барсово","location":[61.254043,73.183186],"url":"https://flussonic.tele-plus.ru/barsovokievskaya1/1/embed.html?dvr=false","id":150},{"name":"Центральная 7 №1","city":"Барсово","location":[61.254697,73.185126],"url":"https://flussonic.tele-plus.ru/barsovocenrt7/embed.html?dvr=false","id":151},{"name":"Центральная 11 №1","city":"Барсово","location":[61.253225,73.183536],"url":"https://flussonic.tele-plus.ru/barsovocenrt11/embed.html?dvr=false","id":152},{"name":" Центральная 12 №1","city":"Барсово","location":[61.254056,73.186689],"url":"https://flussonic.tele-plus.ru/barsovocenrt12/embed.html?dvr=false","id":153},{"name":"Таежная 2 №1","city":"Солнечный","location":[61.275636,73.188513],"url":"https://flussonic.tele-plus.ru/Taezhnaya_2_1pod/embed.html?dvr=false","id":154},{"name":"Космонавтов 33 №1","city":"Солнечный","location":[61.275956,73.185288],"url":"https://flussonic.tele-plus.ru/Kosmonavtov_33/embed.html?dvr=false","id":155},{"name":"Аэрофлотская 38 №1","city":"Таёжный","location":[61.334042,73.395063],"url":"https://flussonic.tele-plus.ru/Aeroflotskaya_38/embed.html?dvr=false","id":156},{"name":"Загородная 3 №1","city":"Финский","location":[61.264673,73.50949],"url":"https://flussonic.tele-plus.ru/Zagorodnay3_1/embed.html?dvr=false","id":157},{"name":"Загородная 3 №2","city":"Финский","location":[61.264673,73.50949],"url":"https://flussonic.tele-plus.ru/Zagorodnay3_2/embed.html?dvr=false","id":158},{"name":" Вид на обь №1","city":"Обзорные камеры : Сургут","location":[0,0],"url":"https://flussonic.tele-plus.ru/Ugorskaya_42/embed.html?dvr=false","id":159},{"name":" Вид на обь №2","city":"Обзорные камеры : Сургут","location":[0,0],"url":"https://flussonic.tele-plus.ru/by_sovhoznaya_7_2pod/embed.html?dvr=false","id":160},{"name":"Вид на храм","city":"Обзорные камеры : Сургут","location":[0,0],"url":"https://flussonic.tele-plus.ru/Univer_11_4pod/embed.html?dvr=false","id":161}
,{"name":"Вид на памятник основателям города","city":"Обзорные камеры : Сургут","location":[61.25338, 73.39677],"url":"https://flussonic.tele-plus.ru/Lenina_33_6pod/embed.html?dvr=false","id":162}
,{"name":"Вид на Мемориал Славы","city":"Обзорные камеры : Сургут","location":[61.23809, 73.39422],"url":"https://flussonic.tele-plus.ru/Gagarina_30_6pod/embed.html?dvr=false","id":163}]